[{"model": "dashboard.events", "pk": 1, "fields": {"eventname": "Pompano Beach House Beach Cleanup", "organization": "Surfrider Broward", "link": "https://volunteer.surfrider.org/opportunities/zXtwM5p7RE", "datetime": "Sat, Aug 12, 2023: 12:00PM-4:00PM GMT", "location": "Pompano Beach, FL", "lat": 26.2378597, "lng": -80.1247667}}, {"model": "dashboard.events", "pk": 2, "fields": {"eventname": "North Topsail Beach Cleanup-Onslow County Beach Access #2", "organization": "Surfrider Cape Fear", "link": "https://volunteer.surfrider.org/opportunities/8gJvYApb57", "datetime": "Sat, Aug 12, 2023: 1:00PM-2:00PM GMT", "location": "North Topsail Beach, NC", "lat": 34.4901665, "lng": -77.43163}}, {"model": "dashboard.events", "pk": 3, "fields": {"eventname": "Old Womans Creek frogbit cleanup", "organization": "Surfrider Northern Ohio", "link": "https://volunteer.surfrider.org/opportunities/6XrufHnG9Z", "datetime": "Sat, Aug 12, 2023: 2:00PM-4:00PM GMT (+ 1 more)", "location": "Huron, OH", "lat": 41.3950489, "lng": -82.55517329999999}}, {"model": "dashboard.events", "pk": 4, "fields": {"eventname": "Ripcurl x Surfrider Beach Cleanup NSB", "organization": "Surfrider Volusia/Flagler", "link": "https://volunteer.surfrider.org/opportunities/nuv9HFFhxL", "datetime": "Sat, Aug 12, 2023: 2:00PM-4:50PM GMT", "location": "New Smyrna Beach, FL", "lat": 29.0258191, "lng": -80.9269984}}, {"model": "dashboard.events", "pk": 5, "fields": {"eventname": "Belmar/Maclearie Park Cleanup & Yoga - Jersey Shore Chapter", "organization": "Surfrider Jersey Shore", "link": "https://volunteer.surfrider.org/opportunities/oYQvk6OrJa", "datetime": "Sat, Aug 12, 2023: 2:00PM-4:00PM GMT", "location": "Belmar, NJ", "lat": 40.1938068, "lng": -74.0987775}}, {"model": "dashboard.events", "pk": 6, "fields": {"eventname": "Beach Cleanup Party and Surf Safari", "organization": "Surfrider Maine", "link": "https://volunteer.surfrider.org/opportunities/uYLVfNNxS3", "datetime": "Sat, Aug 12, 2023: 2:30PM-7:00PM GMT", "location": "Scarborough, ME", "lat": 43.5901974, "lng": -70.33449209999999}}, {"model": "dashboard.events", "pk": 7, "fields": {"eventname": "Surfrider North OC - Beach Cleanup - Balboa Pier - 08.12.23", "organization": "Surfrider North Orange County", "link": "https://volunteer.surfrider.org/opportunities/H9YUmAeScR", "datetime": "Sat, Aug 12, 2023: 3:00PM-7:00PM GMT", "location": "Newport Beach, CA", "lat": 33.6188829, "lng": -117.9298493}}, {"model": "dashboard.events", "pk": 8, "fields": {"eventname": "Monthly Respect the Rincon Parkway Beach Clean Up", "organization": "Surfrider Ventura County", "link": "https://volunteer.surfrider.org/opportunities/ydoRlt1Pby", "datetime": "Sat, Aug 12, 2023: 3:30PM-5:30PM GMT (+ 9 more)", "location": "", "lat": null, "lng": null}}, {"model": "dashboard.events", "pk": 9, "fields": {"eventname": "August 12, 2023 Beach Cleanup at Sunrise Beach, Gig Harbor", "organization": "Surfrider South Sound", "link": "https://volunteer.surfrider.org/opportunities/2OMvEZNaRS", "datetime": "Sat, Aug 12, 2023: 5:00PM-7:00PM GMT", "location": "Gig Harbor, WA", "lat": 47.32926399999999, "lng": -122.5801293}}, {"model": "dashboard.events", "pk": 10, "fields": {"eventname": "Marin Chapter - Volunteer Beach Cleanup - Stinson Beach", "organization": "Surfrider Marin", "link": "https://volunteer.surfrider.org/opportunities/eu4J6HGAJE", "datetime": "Sat, Aug 12, 2023: 6:30PM-9:00PM GMT", "location": "Stinson Beach, CA", "lat": 37.9004816, "lng": -122.6444263}}, {"model": "dashboard.events", "pk": 11, "fields": {"eventname": "Beach Cleanup", "organization": "Surfrider Oʻahu", "link": "https://volunteer.surfrider.org/opportunities/PrDgapwuI2", "datetime": "Sat, Aug 12, 2023: 8:00PM-10:00PM GMT", "location": "Kailua, HI", "lat": 19.6419129, "lng": -155.9962255}}, {"model": "dashboard.events", "pk": 12, "fields": {"eventname": "Beach Cleanup with Surfrider NH chapter", "organization": "Surfrider New Hampshire", "link": "https://volunteer.surfrider.org/opportunities/ElRpL0ripm", "datetime": "Sun, Aug 13, 2023: 12:00PM-2:00PM GMT", "location": "Hampton, NH", "lat": 42.93759319999999, "lng": -70.83892190000002}}, {"model": "dashboard.events", "pk": 13, "fields": {"eventname": "Surfrider at Farragut Farmers Market", "organization": "Surfrider Annapolis", "link": "https://volunteer.surfrider.org/opportunities/cVFcfl1Dsn", "datetime": "Sun, Aug 13, 2023: 1:00PM-5:00PM GMT", "location": "Annapolis, MD", "lat": 38.9401378, "lng": -76.90663789999999}}, {"model": "dashboard.events", "pk": 14, "fields": {"eventname": "Mangroves and Mimosas Paddle Cleanup", "organization": "Surfrider Florida Keys", "link": "https://volunteer.surfrider.org/opportunities/FyUpsyTXir", "datetime": "Sun, Aug 13, 2023: 2:00PM-4:30PM GMT", "location": "Tavernier, FL", "lat": 25.0115186, "lng": -80.51506080000001}}, {"model": "dashboard.events", "pk": 15, "fields": {"eventname": "Chapter Reorganizing Meetup", "organization": "Surfrider Northern Michigan", "link": "https://volunteer.surfrider.org/opportunities/eM1NuvHumi", "datetime": "Sun, Aug 13, 2023: 10:30PM-12:00AM GMT", "location": "Traverse City, MI", "lat": 44.7630567, "lng": -85.62063169999999}}, {"model": "dashboard.events", "pk": 16, "fields": {"eventname": "Oceanside \"Sunset Strike Team\" Cleanup Series", "organization": "Surfrider San Diego", "link": "https://volunteer.surfrider.org/opportunities/eQU9FdnIlX", "datetime": "Mon, Aug 14, 2023: 1:30AM-3:00AM GMT (+ 2 more)", "location": "Oceanside, CA", "lat": 33.1958696, "lng": -117.3794834}}, {"model": "dashboard.events", "pk": 17, "fields": {"eventname": "Plastics Committee Meeting (Virtual)", "organization": "Surfrider Eastern Long Island", "link": "https://volunteer.surfrider.org/opportunities/V1N14uYgXE", "datetime": "Mon, Aug 14, 2023: 10:00PM-11:00PM GMT", "location": "", "lat": null, "lng": null}}, {"model": "dashboard.events", "pk": 18, "fields": {"eventname": "Clean Border Water Now Monthly Program Meeting", "organization": "Surfrider San Diego", "link": "https://volunteer.surfrider.org/opportunities/Wpd8RiFNgu", "datetime": "Tue, Aug 15, 2023: 1:00AM-2:00AM GMT (+ 4 more)", "location": "", "lat": null, "lng": null}}, {"model": "dashboard.events", "pk": 19, "fields": {"eventname": "Surfrider Foundation Volusia Flagler Meeting", "organization": "Surfrider Volusia/Flagler", "link": "https://volunteer.surfrider.org/opportunities/ZV9IDcawfp", "datetime": "Tue, Aug 15, 2023: 11:30PM-12:30AM GMT (+ 5 more)", "location": "", "lat": null, "lng": null}}, {"model": "dashboard.events", "pk": 20, "fields": {"eventname": "Rise Above Plastics Program Meeting", "organization": "Surfrider San Diego", "link": "https://volunteer.surfrider.org/opportunities/PCFqIFBv5z", "datetime": "Wed, Aug 16, 2023: 1:00AM-2:30AM GMT (+ 4 more)", "location": "", "lat": null, "lng": null}}, {"model": "dashboard.events", "pk": 21, "fields": {"eventname": "South Waterfront Cigarette Butt Cleanup", "organization": "Surfrider Portland Oregon", "link": "https://volunteer.surfrider.org/opportunities/RLGbpBRq6Q", "datetime": "Wed, Aug 16, 2023: 1:30AM-3:00AM GMT", "location": "Portland, OR", "lat": 45.515232, "lng": -122.6783853}}, {"model": "dashboard.events", "pk": 22, "fields": {"eventname": "Surfrider August Chapter Meeting", "organization": "Surfrider Seattle", "link": "https://volunteer.surfrider.org/opportunities/R4lqQCQxqO", "datetime": "Wed, Aug 16, 2023: 1:30AM-3:00AM GMT", "location": "Seattle, WA", "lat": 47.6062095, "lng": -122.3320708}}, {"model": "dashboard.events", "pk": 23, "fields": {"eventname": "SFVA Ocean Friendly Garden", "organization": "Surfrider Foundation Virginia Chapter", "link": "https://volunteer.surfrider.org/opportunities/Av35HT81IO", "datetime": "Wed, Aug 16, 2023: 9:30PM-10:30PM GMT (+ 7 more)", "location": "Virginia Beach, VA", "lat": 36.8516437, "lng": -75.97921939999999}}, {"model": "dashboard.events", "pk": 24, "fields": {"eventname": "August General Chapter Meeting", "organization": "Surfrider Space Coast", "link": "https://volunteer.surfrider.org/opportunities/oREDUO8Pcw", "datetime": "Wed, Aug 16, 2023: 10:30PM-12:00AM GMT", "location": "Cocoa Beach, FL", "lat": 28.3200067, "lng": -80.6075513}}, {"model": "dashboard.events", "pk": 25, "fields": {"eventname": "Core Volunteer Orientation", "organization": "Surfrider San Diego", "link": "https://volunteer.surfrider.org/opportunities/c9VFBevQz5", "datetime": "Thu, Aug 17, 2023: 1:00AM-2:00AM GMT (+ 1 more)", "location": "", "lat": null, "lng": null}}, {"model": "dashboard.events", "pk": 26, "fields": {"eventname": "Surfrider August Summer Social", "organization": "Surfrider Seattle", "link": "https://volunteer.surfrider.org/opportunities/R4lqQCQxqO", "datetime": "Wed, Aug 16, 2023: 1:30AM-3:00AM GMT", "location": "Seattle, WA", "lat": 47.6062095, "lng": -122.3320708}}, {"model": "dashboard.events", "pk": 27, "fields": {"eventname": "August Chapter Meeting 4th Annual Zero Waste Picnic", "organization": "Surfrider Central LI Chapter", "link": "https://volunteer.surfrider.org/opportunities/gxkulYbAfG", "datetime": "Wed, Aug 16, 2023: 10:30PM-12:00AM GMT", "location": "Long Beach, NY", "lat": 40.5884373, "lng": -73.65790799999999}}, {"model": "dashboard.events", "pk": 28, "fields": {"eventname": "Net Patrol Cleanups", "organization": "Surfrider Kauaʻi", "link": "https://volunteer.surfrider.org/opportunities/jHl7fDPvQX", "datetime": "Thu, Aug 17, 2023: 1:30AM-4:00AM GMT (+ 1 more)", "location": "Anahola, HI", "lat": 21.2755901, "lng": -157.7065323}}, {"model": "dashboard.events", "pk": 29, "fields": {"eventname": "OFR Pau Hana", "organization": "Surfrider Oʻahu", "link": "https://volunteer.surfrider.org/opportunities/XgGhs8qAqa", "datetime": "Thu, Aug 17, 2023: 4:30AM-6:30AM GMT", "location": "Honolulu, HI", "lat": 21.3098845, "lng": -157.8581401}}, {"model": "dashboard.events", "pk": 30, "fields": {"eventname": "August Chapter Meeting", "organization": "Surfrider Maine", "link": "https://volunteer.surfrider.org/opportunities/eoApekglwD", "datetime": "Thu, Aug 17, 2023: 10:00PM-11:00PM GMT", "location": "Freeport, ME", "lat": 43.8570065, "lng": -70.1031201}}, {"model": "dashboard.events", "pk": 31, "fields": {"eventname": "Environmental Happy Hour", "organization": "Surfrider New York City", "link": "https://volunteer.surfrider.org/opportunities/SOPSxOhu01", "datetime": "Thu, Aug 17, 2023: 10:00PM-11:45PM GMT", "location": "New York, NY", "lat": 40.7127753, "lng": -74.0059728}}, {"model": "dashboard.events", "pk": 32, "fields": {"eventname": "Stories of the Sea Film Night", "organization": "Surfrider Florida Keys", "link": "https://volunteer.surfrider.org/opportunities/xkPKFSihWK", "datetime": "Thu, Aug 17, 2023: 11:00PM-1:00AM GMT", "location": "Key West, FL", "lat": 28.827292, "lng": -81.782451}}, {"model": "dashboard.events", "pk": 33, "fields": {"eventname": "Movie Night at Ossies", "organization": "Surfrider Newport (Oregon)", "link": "https://volunteer.surfrider.org/opportunities/r8gLZ9ed6e", "datetime": "Fri, Aug 18, 2023: 2:00AM-4:00AM GMT", "location": "Newport, OR", "lat": 44.6367836, "lng": -124.0534505}}, {"model": "dashboard.events", "pk": 34, "fields": {"eventname": "Wrightsville Beach Cleanup-Mercers Pier", "organization": "Surfrider Cape Fear", "link": "https://volunteer.surfrider.org/opportunities/qGDs6oWyIc", "datetime": "Sat, Aug 19, 2023: 12:00PM-1:00PM GMT", "location": "Wrightsville Beach, NC", "lat": 34.2085036, "lng": -77.7963709}}, {"model": "dashboard.events", "pk": 35, "fields": {"eventname": "Surfrider North OC x Masala Waves - Beach Cleanup - Brookhurst / PCH - 08.19.23", "organization": "Surfrider North Orange County", "link": "https://volunteer.surfrider.org/opportunities/zTFRu9pMz5", "datetime": "Sat, Aug 19, 2023: 3:00PM-7:00PM GMT", "location": "Huntington Beach, CA", "lat": 33.6594835, "lng": -117.9988026}}, {"model": "dashboard.events", "pk": 36, "fields": {"eventname": "Ormond Beach and Wetlands Cleanup", "organization": "Surfrider Ventura County", "link": "https://volunteer.surfrider.org/opportunities/GeS9oIHIiX", "datetime": "Sat, Aug 19, 2023: 4:00PM-7:00PM GMT (+ 12 more)", "location": "Oxnard, CA", "lat": 34.1975048, "lng": -119.1770516}}, {"model": "dashboard.events", "pk": 37, "fields": {"eventname": "Monthly Ocean Friendly Garden Workday", "organization": "Surfrider Ventura County", "link": "https://volunteer.surfrider.org/opportunities/Z9BfXzQKu9", "datetime": "Sat, Aug 19, 2023: 4:00PM-7:00PM GMT (+ 9 more)", "location": "Ventura, CA", "lat": 34.2804923, "lng": -119.2945199}}, {"model": "dashboard.events", "pk": 38, "fields": {"eventname": "Moonlight State Beach Beach Cleanup", "organization": "Surfrider San Diego", "link": "https://volunteer.surfrider.org/opportunities/enuxikYx5s", "datetime": "Sat, Aug 19, 2023: 4:00PM-6:00PM GMT (+ 3 more)", "location": "Encinitas, CA", "lat": 33.0369867, "lng": -117.2919818}}, {"model": "dashboard.events", "pk": 39, "fields": {"eventname": "Imperial Beach Beach Cleanup", "organization": "Surfrider San Diego", "link": "https://volunteer.surfrider.org/opportunities/lfkdfnr78x", "datetime": "Sat, Aug 19, 2023: 5:00PM-7:00PM GMT (+ 4 more)", "location": "", "lat": null, "lng": null}}, {"model": "dashboard.events", "pk": 40, "fields": {"eventname": "August 2023 Clean & Cruise @ Green Lake Park", "organization": "Surfrider Seattle", "link": "https://volunteer.surfrider.org/opportunities/8bmdXRxnG0", "datetime": "Sat, Aug 19, 2023: 6:00PM-9:00PM GMT", "location": "Seattle, WA", "lat": 47.6062095, "lng": -122.3320708}}, {"model": "dashboard.events", "pk": 41, "fields": {"eventname": "SFLA x Azlee Beach Cleanup", "organization": "Surfrider Los Angeles", "link": "https://volunteer.surfrider.org/opportunities/QrZUtv3Zp7", "datetime": "Sat, Aug 19, 2023: 7:00PM-9:00PM GMT", "location": "Santa Monica, CA", "lat": 34.0194543, "lng": -118.4911912}}, {"model": "dashboard.events", "pk": 42, "fields": {"eventname": "Surfrider at Farragut Farmers Market 8/20", "organization": "Surfrider Annapolis", "link": "https://volunteer.surfrider.org/opportunities/3GUkN1M9q1", "datetime": "Sun, Aug 20, 2023: 1:00PM-5:00PM GMT", "location": "Annapolis, MD", "lat": 38.9784453, "lng": -76.4921829}}, {"model": "dashboard.events", "pk": 43, "fields": {"eventname": "Surfrider MA Meet Up and Fundraiser at Mayflour", "organization": "Surfrider Massachusetts", "link": "https://volunteer.surfrider.org/opportunities/RqRqN2dDWI", "datetime": "Sun, Aug 20, 2023: 2:00PM-4:00PM GMT", "location": "Essex, MA", "lat": 42.63195820000001, "lng": -70.7829315}}, {"model": "dashboard.events", "pk": 44, "fields": {"eventname": "Baker Beach Cleanup", "organization": "Surfrider San Francisco", "link": "https://volunteer.surfrider.org/opportunities/TUpD9ZJ09k", "datetime": "Sun, Aug 20, 2023: 5:00PM-7:00PM GMT (+ 5 more)", "location": "", "lat": null, "lng": null}}]